City_ID,City,Country,Max Temp,Current Description,Lat,Lng,Hotel Name
0,Mataura,NZ,57.0,overcast clouds,-46.1927,168.8643,Ellie's Villa
1,Rikitea,PF,77.74,clear sky,-23.1203,-134.9692,Pension Maro'i
2,College,US,55.4,broken clouds,64.8569,-147.8028,Pike's Waterfront Lodge
4,East London,ZA,74.7,clear sky,-33.0153,27.9116,Tu Casa
6,Punta Arenas,CL,51.8,light rain,-53.15,-70.9167,Hotel Dreams Del Estrecho
8,Bluff,NZ,57.0,broken clouds,-46.6,168.3333,Bluff Homestead - Guesthouse & Campervan Park
9,Padang,ID,76.1,scattered clouds,-0.9492,100.3543,Mercure Padang
11,Ushuaia,AR,55.4,few clouds,-54.8,-68.3,Albatros Hotel
12,Hobart,AU,55.99,broken clouds,-42.8794,147.3294,Mantra on Collins Hobart
13,Cape Town,ZA,68.0,clear sky,-33.9258,18.4232,Southern Sun Waterfront Cape Town
14,Saint George,US,75.0,clear sky,37.1041,-113.5841,Best Western Plus Abbey Inn
15,Lebu,CL,59.94,broken clouds,-37.6167,-73.65,Hostal Las Lilas
18,Caravelas,BR,75.4,clear sky,-17.7125,-39.2481,Pousada dos Navegantes
22,Arraial Do Cabo,BR,77.0,broken clouds,-22.9661,-42.0278,Pousada Porto Praia
23,Monduli,TZ,61.65,light rain,-3.3,36.45,Monduli Lutheran Youth Hostel
25,Pisco,PE,75.2,clear sky,-13.7,-76.2167,Hotel San Isidro Oficial
26,Hermanus,ZA,63.0,broken clouds,-34.4187,19.2345,Misty Waves Boutique Hotel
28,Vaini,TO,78.8,scattered clouds,-21.2,-175.2,Keleti Beach Resort
32,Fortuna,US,63.0,scattered clouds,40.5982,-124.1573,Super 8 by Wyndham Fortuna
33,Kahului,US,78.8,scattered clouds,20.8947,-156.47,Maui Seaside Hotel
35,Imbituba,BR,71.6,light rain,-28.24,-48.6703,Praia Hotel Imbituba
36,Castro,BR,59.92,broken clouds,-24.7911,-50.0119,CHACARA BAILLY
38,Carnarvon,AU,75.52,clear sky,-24.8667,113.6333,Hospitality Carnarvon
40,Haines Junction,CA,53.6,scattered clouds,60.7522,-137.5108,Parkside Inn
47,Rock Sound,BS,78.76,broken clouds,24.9,-76.2,Rock Sound Club
50,Elizabeth City,US,64.4,broken clouds,36.2946,-76.2511,Hampton Inn Elizabeth City
51,Waiouru,NZ,51.73,scattered clouds,-39.4833,175.6667,Tāwhiri
55,Busselton,AU,60.89,broken clouds,-33.65,115.3333,Observatory Guest House
59,Barra Do Corda,BR,74.35,light rain,-5.5,-45.25,Belchior Palace Hotel
60,Vila Velha,BR,78.8,clear sky,-20.3297,-40.2925,Quality Suites Vila Velha
61,Kaitangata,NZ,62.01,broken clouds,-46.2817,169.8464,Kaitangata Motor Camp
69,Suamico,US,60.8,scattered clouds,44.6319,-88.0393,"Country Inn & Suites by Radisson, Green Bay North, WI"
70,Kapaa,US,78.8,few clouds,22.0752,-159.319,Sheraton Kauai Resort at Coconut Beach
71,Sao Joao Da Barra,BR,78.8,few clouds,-21.6403,-41.0511,Pousada Porto De Canoas
74,Whitehorse,CA,51.8,clear sky,60.7161,-135.0538,The Sternwheeler Hotel & Conference Centre
75,Lagoa,PT,60.78,overcast clouds,39.05,-27.9833,Casa Das Faias
77,Progreso,MX,77.0,broken clouds,21.2833,-89.6667,Playa Linda Hotel
78,Bengkulu,ID,74.12,overcast clouds,-3.8004,102.2655,Grage Hotel Bengkulu
79,Port Elizabeth,ZA,62.6,scattered clouds,-33.918,25.5701,39 On Nile Guest House
80,Jiexiu,CN,55.27,scattered clouds,37.0244,111.9125,IU Hotel Jinzhong Yuhua Road
81,Airai,TL,56.17,overcast clouds,-8.9266,125.4092,Juvinal Martin
83,Vao,NC,76.95,light rain,-22.6667,167.4833,Hotel Kou-Bugny
85,New Norfolk,AU,57.0,overcast clouds,-42.7826,147.0587,The Shingles Riverside Cottages
87,Fairbanks,US,55.4,clear sky,64.8378,-147.7164,Westmark Fairbanks Hotel & Conference Center
88,Mahebourg,MU,78.8,light rain,-20.4081,57.7,Shandrani Beachcomber Resort & Spa
89,Jamestown,US,55.0,overcast clouds,42.097,-79.2353,Hampton Inn & Suites Jamestown
90,Atasu,KZ,51.15,overcast clouds,48.6814,71.6433,Dostyk
93,San Patricio,US,64.0,overcast clouds,28.017,-97.5169,"Motel 6 Sinton, TX"
95,Esperance,AU,50.0,clear sky,-33.8667,121.9,Hospitality Esperance
96,Maragogi,BR,77.63,overcast clouds,-9.0122,-35.2225,Salinas do Maragogi All Inclusive Resort
97,Ribeira Grande,PT,62.04,broken clouds,38.5167,-28.7,Quinta da Meia Eira
98,Mar Del Plata,AR,71.6,clear sky,-38.0023,-57.5575,Gran Hotel Mar del Plata
100,Igbo Ora,NG,78.94,overcast clouds,7.4333,3.2833,Pinkbell Inn
102,Mount Gambier,AU,53.6,mist,-37.8333,140.7667,Commodore on the Park
103,Inirida,CO,77.56,overcast clouds,3.8653,-67.9239,Fuente del Guania Hotel de Lujo
105,Muriwai Beach,NZ,63.0,overcast clouds,-36.8167,174.45,Coast Retreat Muriwai - Golf and Surf Holiday
109,Naze,JP,64.4,broken clouds,28.3667,129.4833,奄美ポートタワーホテル
113,Tongchuan,CN,51.4,clear sky,35.0806,109.0897,Tongchuan Hotel
114,Mayumba,GA,78.8,overcast clouds,-3.432,10.6554,LIKWALE LODGE
117,Matagami,CA,50.0,clear sky,49.7502,-77.6328,Hôtel Matagami
118,Kruisfontein,ZA,71.42,clear sky,-34.0033,24.7314,Oyster Bay House Rental
119,Saint-Philippe,RE,75.2,overcast clouds,-21.3585,55.7679,"Chambres d'hôte ""La Trinité"""
122,Port Macquarie,AU,60.01,clear sky,-31.4333,152.9167,Rydges Port Macquarie
124,San Rafael,AR,76.24,scattered clouds,-34.6177,-68.3301,Hotel San Rafael
126,Erzin,TR,75.0,overcast clouds,36.9559,36.2,Artemis Otel
127,Sibu,MY,75.2,scattered clouds,2.3,111.8167,RH HOTEL (4 Star)
128,Bredasdorp,ZA,64.4,scattered clouds,-34.5322,20.0403,Bredasdorp Country Manor
129,Saldanha,ZA,64.4,scattered clouds,-33.0117,17.9442,Blue Bay Lodge
131,Pacific Grove,US,71.01,clear sky,36.6177,-121.9166,Lovers Point Inn
136,Bethel,US,57.99,broken clouds,41.3712,-73.414,Courtyard by Marriott Danbury
138,Mareeba,AU,73.99,heavy intensity rain,-17.0,145.4333,Trinity Plains Tourist Park
139,Zhanaozen,KZ,54.14,broken clouds,43.3,52.8,K.korabay 28A
140,Bin Qirdan,TN,60.46,clear sky,33.1378,11.2197,Hôtel Palace
141,Broken Hill,AU,50.0,scattered clouds,-31.95,141.4333,Royal Exchange Hotel
142,Ketchikan,US,68.0,clear sky,55.3422,-131.6461,Snows Cove Lodge
143,Cidreira,BR,70.77,broken clouds,-30.1811,-50.2056,Hotel Castelo
144,Hami,CN,58.37,scattered clouds,42.8,93.45,Laoyutang Resort
145,Asbe Teferi,ET,58.98,overcast clouds,9.0833,40.8667,Megenagna hotel
147,Bijar,IR,54.28,scattered clouds,35.8668,47.6051,رنگ فروشي جواهري
149,Atambua,ID,69.96,overcast clouds,-9.1061,124.8925,Pastori 1 Jemaat Polycarpus
151,Meulaboh,ID,75.88,moderate rain,4.1363,96.1285,Kost Pria
152,Praia Da Vitoria,PT,62.6,few clouds,38.7333,-27.0667,Hotel Branco I
153,Constitucion,CL,58.53,broken clouds,-35.3333,-72.4167,Hotel Boutique Las Azucenas
154,Victoria,HK,71.01,overcast clouds,22.2855,114.1577,Mini Hotel Central
155,North Bend,US,72.0,broken clouds,43.4065,-124.2243,Red Lion Hotel Coos Bay
158,Batemans Bay,AU,55.0,few clouds,-35.7167,150.1833,Batemans Bay Marina Resort
160,Ponorogo,ID,73.65,overcast clouds,-7.8685,111.462,Kencana Dewi Hotel
161,Iquitos,PE,78.8,light rain,-3.7481,-73.2472,Casa Morey Hotel & Restaurant
163,Toamasina,MG,69.8,broken clouds,-18.1667,49.3833,Hotel H1
164,Farafangana,MG,69.39,overcast clouds,-22.8167,47.8333,Miarina
166,Jijiga,ET,61.18,light rain,9.35,42.8,RAMAAS HOTEL
170,Vilhena,BR,78.8,scattered clouds,-12.7406,-60.1458,Hotel Mirage
172,Meadow Lake,US,54.0,broken clouds,34.8014,-106.5436,JKL Inc. R.V Park and Storage
174,Tura,IN,66.13,scattered clouds,25.5198,90.2201,Hotel RIKMAN Continental
175,Palmer,US,60.8,broken clouds,42.1584,-72.3287,Wedgewood Motel
176,Turbat,PK,79.84,broken clouds,26.0023,63.044,Mubashar Quarters
178,Cerrito,CO,77.0,broken clouds,6.8432,-72.694,Yariseth juliana
180,Port Alfred,ZA,74.97,clear sky,-33.5906,26.891,The Halyards Hotel
181,Emerald,AU,63.0,clear sky,-23.5333,148.1667,The Irish Village
183,Ahipara,NZ,62.69,overcast clouds,-35.1667,173.1667,Ahipara Holiday Park
184,Nouakchott,MR,71.6,clear sky,18.0858,-15.9785,HOTEL IMAN فندق إيمان
185,Qui Nhon,VN,74.57,overcast clouds,13.7667,109.2333,Hoang Yen Canary Hotel
186,Valdivia,CL,62.6,overcast clouds,-39.8142,-73.2459,Hostal Entre Rios
188,Dong Hoi,VN,74.39,scattered clouds,17.4833,106.6,Nam Long Hotel
190,Ashland,US,60.8,few clouds,40.8167,-82.2665,Holiday Inn Express & Suites Ashland
191,Roma,US,59.0,scattered clouds,43.2128,-75.4557,Wingate By Wyndham Rome
193,Chuy,UY,63.91,clear sky,-33.6971,-53.4616,Nuevo Hotel Plaza
195,Omboue,GA,79.16,overcast clouds,-1.5746,9.2618,Hotel Olako
198,Casper,US,59.0,scattered clouds,42.8666,-106.3131,Ramkota Hotel
200,Tooele,US,60.8,clear sky,40.5308,-112.2983,Holiday Inn Express & Suites Tooele
202,Codrington,AU,53.58,broken clouds,-38.2667,141.9667,Codrington Gardens Bed And Breakfast
203,Sabha,LY,78.28,overcast clouds,27.0377,14.4283,Foundation Taaj Asala for Historical Research and Archeology
208,La Rioja,ES,51.01,clear sky,42.25,-2.5,Casa Concejos
209,Ranong,TH,78.73,overcast clouds,9.9658,98.6348,Tinidee Hotel@Ranong
211,Nouadhibou,MR,66.2,clear sky,20.930999999999997,-17.0347,El Medina
212,Nurota,UZ,57.2,broken clouds,40.5614,65.6886,Guest House Ruslan Nurata & Tours
213,Itarema,BR,78.33,light rain,-2.9248,-39.9167,"Sea Lounge! Bar, Club & Restaurant"
216,Russell,US,77.0,clear sky,32.3502,-85.1999,Macs
220,Lompoc,US,73.0,clear sky,34.6391,-120.4579,Holiday Inn Express Lompoc
221,Baculin,PH,77.92,overcast clouds,7.4525,126.5842,Shovy's Cove
223,Muros,ES,57.0,light rain,42.7762,-9.0603,Apartment Av. Castelao
224,Urbana,US,61.0,broken clouds,40.1106,-88.2073,America's Best Inn Urbana Champaign
226,Deseronto,CA,57.0,broken clouds,44.2001,-77.0494,Mohawk Bay Trailer Park
227,Chimbote,PE,70.79,few clouds,-9.0853,-78.5783,Hotel Viera Chimbote
230,Kununurra,AU,60.8,broken clouds,-15.7667,128.7333,Hotel Kununurra
233,Casablanca,MA,66.0,scattered clouds,33.5928,-7.6192,فندق البيت المغربي كازبلانكا
234,Ambalavao,MG,57.47,overcast clouds,-21.8333,46.9333,Hôtel Le Tropik
235,Harlingen,US,68.0,overcast clouds,26.1906,-97.6961,Courtyard by Marriott Harlingen
236,Lahat,ID,71.49,moderate rain,-3.8,103.5333,Hotel Grand Zuri Lahat by ZHM
239,Baker City,US,72.0,clear sky,44.7749,-117.8344,Bridge Street Inn
242,Hualmay,PE,70.97,broken clouds,-11.0964,-77.6139,Hotel Villa Kitzia Huacho
245,Marrakesh,MA,69.8,clear sky,31.6315,-8.0083,Novotel Marrakech Hivernage
249,Maceio,BR,75.2,broken clouds,-9.6658,-35.7353,Poutur Pousada
250,Ocean City,US,64.4,broken clouds,39.2776,-74.5746,Biscayne Suites
251,Lebanon,US,64.4,overcast clouds,36.2081,-86.2911,Hampton Inn & Suites Lebanon
254,Inhambane,MZ,66.79,few clouds,-23.865,35.3833,Oceano
256,Virginia Beach,US,66.2,broken clouds,36.8529,-75.97800000000001,Hilton Virginia Beach Oceanfront
260,Kalianget,ID,78.73,broken clouds,-7.05,113.9333,Pesanggrahan Garam
261,Maumere,ID,79.14,overcast clouds,-8.6199,122.2111,Sylvia Hotel
265,Brebes,ID,76.84,scattered clouds,-6.8706,109.0369,HOTEL GRAND DIAN BREBES
266,Merrill,US,57.99,broken clouds,45.1805,-89.6835,Prairie Motel
267,Payson,US,62.01,scattered clouds,40.0444,-111.7321,Quality Inn Payson I-15
270,Cap Malheureux,MU,75.99,overcast clouds,-19.9842,57.6142,Pereybere Hotel & Spa
271,Ulladulla,AU,55.0,clear sky,-35.35,150.4667,Sandpiper Motel
272,Maputo,MZ,69.01,clear sky,-25.9653,32.5892,Pestana Rovuma
273,Rio Grande,BR,68.0,scattered clouds,-32.035,-52.0986,Hotel Atlântico Rio Grande
275,Panacan,PH,77.0,scattered clouds,9.2463,118.4082,Mom's Place Resort
277,Sterling,US,62.6,broken clouds,39.0062,-77.4286,Hampton Inn & Suites Washington-Dulles International Airport
278,Linfen,CN,56.64,scattered clouds,36.0889,111.5189,Suoxing Hotel
280,Pathein,MM,76.78,clear sky,16.7833,94.7333,New Pammawaddy Hotel
285,Nuevo Progreso,MX,70.0,scattered clouds,23.1667,-97.95,Balneario Rio el Paraiso
286,Mogok,MM,66.79,few clouds,22.9167,96.5,MOGOK HILL HOTEL
290,Katsuura,JP,55.0,clear sky,35.1333,140.3,Katsuura Hotel Mikazuki
295,Mega,ET,58.73,light rain,4.05,38.3,Amanuel Guest House
296,Pawayan,IN,77.31,clear sky,28.0667,80.1,SBM TOILET KAMALBAG
297,Birjand,IR,57.2,broken clouds,32.8663,59.2211,Birjand Tourist Hotel
298,Oytal,KZ,51.46,scattered clouds,42.9057,73.2697,Sanatorium Ak-Niet
300,Lubao,PH,77.0,broken clouds,14.9167,120.55,Hacienda Gracia
305,Flinders,AU,54.0,clear sky,-34.5833,150.8552,Shellharbour Resort & Conference Centre
308,Dharchula,IN,59.02,broken clouds,29.85,80.5333,Mahara Hotel
309,Illapel,CL,69.08,scattered clouds,-31.6308,-71.1653,Hotel Londres
313,Hasaki,JP,54.0,clear sky,35.7333,140.8333,Hotel Sunrise Choshi
314,Humen,CN,73.99,broken clouds,22.819000000000003,113.6731,豪门大饭店
315,Rawson,AR,67.42,overcast clouds,-43.3002,-65.1023,Hosteria Sampedro
316,Launceston,AU,52.0,scattered clouds,-41.45,147.1667,Hotel Grand Chancellor Launceston
317,Ardakan,IR,66.2,clear sky,32.31,54.0175,Ardakan Hotel
320,Huntsville,US,64.4,overcast clouds,34.7304,-86.5861,Embassy Suites by Hilton Huntsville Hotel & Spa
324,Ponta Do Sol,PT,59.0,clear sky,32.6667,-17.1,Hotel do Campo
328,Zurrieq,MT,55.99,few clouds,35.8311,14.4742,Ta'Bertu Guest House
331,Sumenep,ID,77.18,broken clouds,-7.0167,113.8667,OYO 3271 Homestay Pandian
334,Abu Dhabi,AE,77.0,clear sky,24.4667,54.3667,Ramee Garden Hotel Apartments
335,Djambala,CG,71.89,light rain,-2.5447,14.7533,Hotel Ravin D'or
338,Golden,US,57.0,broken clouds,39.7555,-105.2211,"The Golden Hotel, Ascend Hotel Collection"
339,Mana,GF,78.01,overcast clouds,5.6592,-53.7767,LE SAMANA
340,Yaring,TH,77.61,overcast clouds,6.8662,101.3689,สถานที่จัดงานแต่ง SOFEE & DORN
341,Marechal Candido Rondon,BR,74.07,broken clouds,-24.5561,-54.0567,Hotel Bender
343,Nantucket,US,50.0,clear sky,41.2835,-70.0995,Jared Coffin House
345,Fethiye,TR,62.6,broken clouds,36.6217,29.1164,Club & Hotel Letoonia
346,Sibolga,ID,74.97,overcast clouds,1.7427,98.7792,Hotel Syariah CN Darussalam
348,Calvinia,ZA,69.66,few clouds,-31.4707,19.776,Die Lemoenhuis
349,Vila Franca Do Campo,PT,60.8,few clouds,37.7167,-25.4333,Pestana Bahia Praia
350,Isabela,PH,78.8,overcast clouds,6.7085,121.9711,Isawad Resort
353,Dondo,MZ,75.2,scattered clouds,-19.6094,34.7431,Arco Iris
355,Necochea,AR,69.01,overcast clouds,-38.5473,-58.7368,dyd -mar Hotel
357,Ilebo,CD,71.96,moderate rain,-4.3167,20.5833,Hôtel BUMAK
361,Marsh Harbour,BS,79.66,overcast clouds,26.5412,-77.0636,Abaco Beach Resort
362,Jonesboro,US,60.01,light rain,35.8423,-90.7043,Hilton Garden Inn Jonesboro
363,Waitati,NZ,59.02,overcast clouds,-45.75,170.5667,Arden Country House BnB Dunedin
365,Dicabisagan,PH,73.47,overcast clouds,17.0818,122.4157,Nancy Montanes Bernardo
366,Kafanchan,NG,77.07,overcast clouds,9.5833,8.3,Metro Guest Inn
367,Termiz,UZ,60.8,clear sky,37.2242,67.2783,Гостиница Shark
368,Fushun,CN,50.0,clear sky,41.8558,123.9233,Love Theme Apartment Xinhua Branch
369,Los Llanos De Aridane,ES,68.0,clear sky,28.6585,-17.9182,Valle Aridane
371,Camacha,PT,62.6,few clouds,33.0833,-16.3333,Hotel Porto Santo & Spa
372,Hambantota,LK,73.4,scattered clouds,6.1241,81.1185,Bungalow 63
373,Coquimbo,CL,59.0,broken clouds,-29.9533,-71.3436,Punto de encuentro
374,Geraldton,AU,59.0,scattered clouds,-28.7667,114.6,Broadwater Mariner Resort
376,Sao Filipe,CV,74.25,scattered clouds,14.8961,-24.4956,Tortuga B&B
377,Socorro,US,62.6,broken clouds,31.6546,-106.3033,guarderia imss papalote
378,Terenos,BR,78.8,few clouds,-20.4422,-54.8603,QUINTAS
379,San Fernando,PH,77.0,broken clouds,15.0286,120.6898,Maharlika Hostel
380,Charters Towers,AU,71.64,clear sky,-20.1,146.2667,Cattleman's Rest Motor Inn
381,Sitka,US,64.4,clear sky,57.0531,-135.33,Westmark Sitka
390,Alyangula,AU,71.6,overcast clouds,-13.8483,136.4192,Groote Eylandt Lodge
391,Sale,MA,62.01,few clouds,34.0389,-6.8166,Hôtel Mercure Rabat Sheherazade
392,Tocache,PE,79.3,heavy intensity rain,-8.1842,-76.5125,Hotel Ortiz
397,Lafayette,US,66.0,few clouds,30.2335,-92.0668,"Drury Inn & Suites Lafayette, LA"
398,Jardim,BR,79.2,few clouds,-21.4803,-56.1381,Estancia Hotel - Jardim MS
400,Kilinochchi,LK,77.97,few clouds,9.3961,80.3982,Solaivanam Guest House
401,Korla,CN,61.25,overcast clouds,41.7597,86.1469,Gulisitan Hotel
403,Iaciara,BR,75.51,broken clouds,-14.0958,-46.6317,Hotel Matinha
405,Karpathos,GR,71.6,overcast clouds,35.507,27.2132,Alex
410,Havelock,US,71.6,broken clouds,34.8791,-76.9013,Sherwood Motel
411,Dunedin,NZ,58.1,overcast clouds,-45.8742,170.5036,Scenic Hotel Southern Cross
412,Cervo,ES,54.0,overcast clouds,43.6702,-7.4101,Hotel Spa Galatea
414,Viedma,AR,71.62,few clouds,-40.8135,-62.9967,Hotel Cristal
415,Broome,US,55.0,overcast clouds,42.2506,-75.833,Chenango Valley State Park
418,Touros,BR,78.8,scattered clouds,-5.1989,-35.4608,INN NEW HORIZON
420,Mocuba,MZ,65.59,broken clouds,-16.8392,36.9856,Phama Lodge
423,San Quintin,MX,67.93,clear sky,30.4833,-115.95,Don Eddie's Sport Fishing Center
424,Roebourne,AU,77.52,clear sky,-20.7833,117.1333,Harding River Caravan Park
425,Pacifica,US,68.0,few clouds,37.6138,-122.4869,"Pacifica Lighthouse, Trademark Collection by Wyndham"
426,Ipixuna,BR,75.2,broken clouds,-1.7625,-48.8043,Casa da Oscarina
427,Dingle,PH,76.64,moderate rain,10.9995,122.6711,SEGAYA PROPERTY
428,Hamilton,US,64.4,clear sky,39.1834,-84.5333,Six Acres Bed & Breakfast
429,Lucapa,AO,67.24,overcast clouds,-8.4192,20.7447,Residência Ulisses Dos Santos
430,Dunyapur,PK,75.2,smoke,29.7995,71.7196,فدا لاج
432,Payo,ID,71.37,light rain,-3.7508,103.6372,Mess keban agung
433,Belmonte,BR,77.0,clear sky,-15.8631,-38.8828,Pousada Monte Carmelo O Pão
434,Westport,US,60.01,overcast clouds,41.1415,-73.3579,The Westport Inn
437,Palembang,ID,72.46,scattered clouds,-2.9167,104.7458,ASTON Palembang Hotel & Conference Center
439,Nkhata Bay,MW,70.68,light rain,-11.6066,34.2907,Mayoka Village
441,Ancud,CL,57.2,moderate rain,-41.8697,-73.8203,Hotel Arena Gruesa
443,Beni,CD,67.12,scattered clouds,0.5,29.4667,Albertine hotel
444,Makokou,GA,71.53,overcast clouds,0.5738,12.8642,WAMY RESIDENCE HOTEL
445,Guerrero Negro,MX,68.86,clear sky,27.9769,-114.0611,"Casa Laguna, Bed & Breakfast"
448,Komsomolskiy,UZ,50.0,clear sky,40.4272,71.7189,Ikathouse
449,Nelson Bay,AU,55.0,few clouds,-32.7167,152.15,Mantra Nelson Bay
450,Mombasa,KE,74.5,moderate rain,-4.0547,39.6636,New Palm Tree Hotel
451,Rocha,UY,61.23,clear sky,-34.4833,-54.3333,Beleza Pura B&B
455,Dunmore Town,BS,78.84,overcast clouds,25.5,-76.65,Coral Sands Hotel
456,Bambous Virieux,MU,78.8,light rain,-20.3428,57.7575,Casa Tia Villa
459,Chabahar,IR,79.84,overcast clouds,25.2919,60.643,هتل گدروشیا
461,San Policarpo,PH,75.0,heavy intensity rain,12.1791,125.5072,JM Lodge
464,Requena,ES,52.0,few clouds,39.4883,-1.1004,Hotel Avenida
468,Praia,CV,69.8,few clouds,14.9215,-23.5087,LT Aparthotel
469,Palu,ID,74.82,moderate rain,-0.8917,119.8707,Hotel Santika Palu
471,Monte Patria,CL,76.69,clear sky,-30.6919,-70.9467,Hotel Monte Cordillera
472,Mount Isa,AU,66.2,clear sky,-20.7333,139.5,ibis Styles Mt Isa Verona
473,Carutapera,BR,75.83,light rain,-1.195,-46.02,Lidera
474,Juba,SS,75.69,overcast clouds,4.8517,31.5825,ROYAL PALACE HOTEL - JUBA
475,Wembley,AU,57.99,clear sky,-31.9333,115.8,Quest on Rheola
478,Mingaora,PK,52.86,clear sky,34.7758,72.3625,Burj Al Swat
479,Persianovskiy,RU,51.01,scattered clouds,47.5137,40.1075,Otel' Dinastiya
480,Bud,US,62.01,overcast clouds,39.446999999999996,-86.1758,Ted McQuinn Trust
481,Juneau,US,66.2,clear sky,58.3019,-134.4197,"Baranof Downtown, Bw Signature Collection"
482,Labuhan,ID,76.5,overcast clouds,-6.8844,112.2051,PT PPI Lamongan Tambak C
483,Carlagan,PH,78.13,overcast clouds,14.975,122.0456,Cabatagan Island
485,Sawtell,AU,59.0,clear sky,-30.3833,153.1,Island Beach House Sawtell
487,Tignere,CM,71.26,broken clouds,7.3667,12.65,SADECK
489,Le Pradet,FR,51.01,clear sky,43.1066,6.0172,Hôtel Kyriad Toulon La Garde
490,Vermillion,US,64.99,broken clouds,42.7794,-96.9292,Holiday Inn Express & Suites Vermillion
493,Kampong Thum,KH,77.4,overcast clouds,12.7111,104.8887,Sambor Village Hotel
495,Itaituba,BR,78.8,few clouds,-4.2761,-55.9836,Hotel Campos
499,Tukrah,LY,62.92,overcast clouds,32.5341,20.5791,Lokta restaurant
502,Kaeo,NZ,63.0,broken clouds,-35.1,173.7833,Bushido Lodge
506,Longyan,CN,60.71,overcast clouds,25.1072,117.0225,Jinjiang Inn Longyan Zhongshan Road Pedestrian Street
508,Kashan,IR,73.53,clear sky,33.9831,51.4364,Manouchehri Traditional House
513,Pemangkat,ID,76.53,broken clouds,1.1667,108.9667,Ramah Kost KITA
515,Altamont,US,73.0,clear sky,42.2068,-121.7372,Microtel Inn & Suites by Wyndham Klamath Falls
517,Minab,IR,69.8,broken clouds,27.1467,57.0801,Bam campground
518,Santiago Del Estero,AR,78.75,scattered clouds,-27.7951,-64.2615,Apartamentos Castelli 90
520,Bundaberg,AU,60.8,clear sky,-24.85,152.35,Takalvan Motel
521,Coos Bay,US,72.0,overcast clouds,43.3665,-124.2179,Best Western Holiday Hotel
522,Dali,CN,50.79,clear sky,25.7,100.1833,Dali Travelling With Hostel
524,Tuscaloosa,US,71.6,clear sky,33.2098,-87.5692,Hampton Inn Tuscaloosa-University
525,El Alto,PE,72.01,overcast clouds,-4.2714,-81.2147,Black Marlin Restaurant & Hospedaje
526,Jasper,US,60.8,broken clouds,37.2001,-94.3502,Guest House Motel
528,Ucluelet,CA,64.99,clear sky,48.9329,-125.5528,Black Rock Oceanfront Resort
531,Yenagoa,NG,76.46,overcast clouds,4.9247,6.2642,Aridolf Resort Wellness and Spa
534,Grand Gaube,MU,75.99,overcast clouds,-20.0064,57.6608,Veranda Paul et Virginie Hotel & Spa
536,Grand-Santi,GF,73.45,overcast clouds,4.25,-54.3833,Hotel La Villa Couacou
537,Tuatapere,NZ,57.0,broken clouds,-46.1333,167.6833,Ron and Tony's Bed & Breakfast
539,Porto Santo,PT,62.6,few clouds,33.071999999999996,-16.3415,Hotel Porto Santo & Spa
542,Saint Anthony,US,64.0,overcast clouds,45.0205,-93.21799999999999,Holiday Inn Express Roseville-St. Paul
543,Florianopolis,BR,73.99,scattered clouds,-27.6146,-48.5012,Hotel Boutique Quinta das Videiras
546,Springdale,US,60.8,broken clouds,36.1867,-94.1288,Springdale Inn
547,Victor Harbor,AU,59.0,scattered clouds,-35.5667,138.6167,McCracken Country Club
549,Wajima,JP,52.03,few clouds,37.4,136.9,Wajiima Onsen Yashio
552,Mahajanga,MG,78.8,few clouds,-15.7167,46.3167,Restaurant Greedy Coco Lodge Majunga
553,Kroya,ID,76.12,broken clouds,-7.6331,109.2461,RUSTANTO Fam
554,Azul,AR,69.01,overcast clouds,-36.777,-59.8585,Cabañas Dulcinea
555,Saravena,CO,79.77,overcast clouds,6.9538,-71.8752,Hotel Diamante Saravena
557,Awbari,LY,75.38,overcast clouds,26.5921,12.7805,فندق أوباري
561,Kula,TR,57.94,light rain,38.5473,28.6498,Anemon Kula Hotel
562,Saint-Pierre,RE,75.2,overcast clouds,-21.3393,55.4781,Lindsey Hôtel
567,Amherst,US,54.0,few clouds,41.3978,-82.2224,Days Inn by Wyndham Amherst
568,Dembi Dolo,ET,64.74,broken clouds,8.5333,34.8,Sayo Plaza
570,San Ramon De La Nueva Oran,AR,77.0,scattered clouds,-23.1322,-64.32600000000001,Hotel Residencial Centro
577,Arinos,BR,76.66,broken clouds,-15.9169,-46.1056,casa do bruno
579,Xinyang,CN,52.65,clear sky,32.1228,114.0656,Jinjiang Inn Style Xinyang Dongfanghong Avenue Culture Center
582,Mayo,US,64.0,scattered clouds,38.8876,-76.5119,Resorts Resource Group International
584,Santa Maria,BR,77.0,few clouds,-29.6842,-53.8069,Hotel Morotin
586,Puri,IN,77.0,haze,19.8,85.85,OYO 1577 Hotel Shree Hari Grand
587,Manokwari,ID,78.53,overcast clouds,-0.8667,134.0833,Swiss Belhotel Manokwari
588,Owando,CG,73.35,overcast clouds,-0.4819,15.8999,Exaunel Hotel Owando
589,Yacuiba,BO,70.7,scattered clouds,-22.038,-63.6797,Hotel Monumental
591,Kawalu,ID,70.29,overcast clouds,-7.3817,108.2082,KOSAN UNGU UNSIK
592,Mpongwe,ZM,63.9,broken clouds,-13.5091,28.155,GCMF Office & Lodge
593,Humaita,BR,75.33,overcast clouds,-7.5061,-63.0208,Corrêa Hotel
594,Port Moresby,PG,77.97,overcast clouds,-9.4431,147.1797,Lamana Hotel
597,Bucerias,MX,78.8,clear sky,20.75,-105.3333,Villa del Palmar Flamingos Beach Resort & Spa Riviera Nayarit
598,Ballina,AU,63.0,scattered clouds,-28.8667,153.5667,Ramada Hotel & Suites by Wyndham Ballina Byron
599,Rapallo,IT,51.01,overcast clouds,44.3511,9.2297,Hotel Portofino
600,Pedro Ii,BR,69.51,moderate rain,-4.4247,-41.4586,Opala Hotel Pedro II
601,Anshun,CN,54.21,overcast clouds,26.25,105.9333,安顺麦吉风格酒店
605,Sakakah,SA,75.2,clear sky,29.9697,40.2064,Fakhamat Al Orjoana Apartment
606,Melilla,ES,62.6,few clouds,35.2937,-2.9383,Hotel Nacional
607,Eucaliptus,BO,60.01,clear sky,-17.5833,-67.5167,Hotel Serrano
609,Antsohihy,MG,75.04,few clouds,-14.8796,47.9875,Hotel de Ville
612,Sao Raimundo Das Mangabeiras,BR,73.35,moderate rain,-7.0219,-45.4811,Hotel Tropical
614,Sonqor,IR,57.2,broken clouds,34.7837,47.6004,رینگ و لاستیک میلاد (غیاثی)
618,Mackay,AU,73.0,scattered clouds,-21.15,149.2,International Lodge Motel
622,Pokhara,NP,65.28,clear sky,28.2333,83.9833,Butterfly Lodge
624,Plettenberg Bay,ZA,69.94,few clouds,-34.0527,23.3716,Thanda Vista B&B
625,Alofi,NU,78.8,scattered clouds,-19.0595,-169.9187,Taloa Heights
628,Liverpool,GB,50.0,broken clouds,53.4106,-2.9779,Premier Inn Liverpool City Centre (Moorfields) hotel
629,Silopi,TR,66.74,broken clouds,37.2497,42.4694,"Özenler Residence Otel, Şırnak Silopi"
632,Yarim,YE,58.73,broken clouds,14.298,44.3779,وليد المسوري ابو اسد
633,Ayagoz,KZ,50.56,overcast clouds,47.9714,80.4392,Gostinitsa Nur
635,Zhob,PK,64.62,broken clouds,31.3411,69.4481,ROOM # 105 DUBAI HOTEL ZHOB
639,Esmeraldas,BR,77.0,clear sky,-19.7625,-44.3139,Forasteiro Pousada - Hotel
640,Myskhako,RU,53.6,light rain,44.6714,37.7433,Myskhako Hotel
642,Chau Doc,VN,78.82,overcast clouds,10.7,105.1167,JADE AND SAPPHIRE GUESTHOUSE
644,Hervey Bay,AU,66.0,clear sky,-25.2986,152.8535,Shelly Bay Resort
645,Sinnamary,GF,77.88,broken clouds,5.3833,-52.95,ALETHEIA Appartement Sinnamary
647,Sunbury,AU,55.4,clear sky,-37.5833,144.7333,Sunbury Motor Inn
648,Kalaleh,IR,62.6,clear sky,37.3807,55.4916,عطر و ادکلن پارسیس
649,Hachinohe,JP,50.0,light rain,40.5,141.5,Hachinohe Grand Hotel
650,Daru,PG,76.44,overcast clouds,-9.0763,143.2092,Daru Lodge
652,Watsa,CD,65.73,scattered clouds,3.0372,29.5355,Hôtel Le Pacifique
654,Cromwell,US,60.8,broken clouds,41.5951,-72.6454,Inn at Middletown
655,Nieves,PH,77.0,broken clouds,15.3274,120.9485,Bill's Inn
658,Chalmette,US,70.0,clear sky,29.9427,-89.9634,Marina Motel Chalmette
659,Caxambu,BR,62.24,broken clouds,-21.9772,-44.9325,Hotel Lopes
661,Marfino,RU,50.0,clear sky,55.7028,37.3822,ARK guest house
662,Valparaiso,CL,59.0,clear sky,-33.0393,-71.6273,Hotel Ultramar
663,Braganca,BR,73.31,light rain,-1.0536,-46.7656,Marujo's Suíte Hotel
666,Bubaque,GW,77.49,broken clouds,11.2833,-15.8333,"Casa Dora, Bubaque"
667,Concepcion Del Uruguay,AR,73.99,overcast clouds,-32.4825,-58.2372,Aires del Campo Cabañas y Hotel
669,Cotonou,BJ,75.2,scattered clouds,6.3654,2.4183,Novotel Cotonou Orisha
670,Xuddur,SO,75.83,broken clouds,4.1213,43.8894,Banjanay Hotel
675,Wanaka,NZ,52.83,moderate rain,-44.7,169.15,Wanaka Homestead Lodge and Cottages
